~Version
VERS. 2.0 : CWLS LOG ASCII STANDARD - VERSION 2.0
WRAP. NO  : One line per depth step
~Well
STRT.M    145.9000 : START DEPTH
STOP.M   3632.0000 : STOP DEPTH
STEP.M      0.0000 : STEP
NULL.      -999.25 : NULL VALUE
COMP.      STATOIL : COMPANY
WELL.          F-1 : WELL
~Curve
MD  .M    : Measured Depth
INC .DEG  : Inclination
AZI .DEG  : Azimuth
~A
145.9	0	0
150.15	0	0
160.45	0	0
170.04	0	0
179.79	0	0
189.74	0	0
198.5	0	0
210.7	0	0
237.6	1.84	302.24
251.1	1.91	304.7
264.9	2.47	305.76
279.2	2.05	306.81
292.7	1.8	304
302.8	1.13	330.72
315.5	1.41	333.18
332.2	2.4	314.19
342.2	2.78	301.18
358.5	3.3	293.1
378	3.07	298.6
414.8	3.3	293.64
455.4	3.07	292.72
495.4	2.84	290.41
535.6	2.77	293.07
575.8	3.06	287.04
616.5	4.01	305.32
656.8	6.13	317.8
697.1	8.24	324.71
720	9.57	322.37
737.4	10.71	320.81
756.8	10.39	320.18
798.9	9.88	320.5
838.3	10.04	315.72
868	11.16	309.73
878.2	11.28	310.41
918	10.7	315.76
999	8.88	319.88
1079.8	9.07	320.34
1120.4	11.38	312.16
1160.8	11.86	307.61
1201	11.69	307.74
1241.4	12.44	309.36
1281.8	12.06	309.62
1322.4	10.85	310.25
1335.6	10.17	309.34
1387.1	7.66	329.93
1428	10.47	345.74
1468.3	12.18	6.35
1508.7	13.62	22.56
1551.3	15.49	29.92
1589.1	17.8	32.61
1629.5	20.24	33.68
1663.4	23.45	33.72
1710.4	26.64	33.77
1750.3	29.38	36.44
1790.4	29.98	36.55
1831.1	30.06	36.61
1871.1	30.03	36.77
1911.6	29.86	35.39
1952.2	29.78	34.81
1992.8	29.92	35.24
2027.3	29.89	35.13
2066.3	29.92	34.8
2113.7	29.8	35.71
2154.7	29.85	34.79
2194.3	29.84	36.98
2234.7	29.79	38.27
2275.1	30.01	37.36
2305.9	29.96	35.61
2396.5	30.06	35.35
2436.7	30.19	35.59
2470.8	30.22	36.84
2517.2	30.25	36.59
2557.9	30.19	34.71
2587	30.19	33.06
2653.2	27.05	19.76
2693.7	26.44	14.67
2733.9	26.47	6.38
2774.3	26.45	356.36
2814.8	26.44	349.52
2855.3	26.84	342.3
2895.1	29.13	334.29
2935.6	30.82	327.98
2975.9	33.73	322.9
3016.3	36.82	316.6
3056.6	38.42	310.99
3097.1	40.86	304.69
3136.9	45.54	301.79
3177.3	49.5	301.46
3217.8	44.76	301.22
3257.9	40.65	301.61
3298.5	36.47	301.87
3338.7	32.86	302.97
3379	28.3	302.94
3419.2	23.61	303.38
3459.7	21.06	302.82
3499.9	21.06	301.73
3540.5	21.02	301.56
3580.5	20.88	301.96
3620	20.89	302.46
3632	20.89	302.46
